[
  {
    "name": "Alpine County Health Department",
    "address": "75 Diamond Valley Rd, Unit B, Markleeville, CA 96120",
    "phone": "(530) 694-2146",
    "type": "public",
    "lat": 38.76947,
    "lng": -119.817039,
    "distance": 11.984815062098562
  },
  {
    "name": "Barton Community Health Center",
    "address": "2201 South Ave, South Lake Tahoe, CA 96150",
    "phone": "(530) 543-5623",
    "type": "VFA",
    "lat": 38.912651,
    "lng": -119.9963,
    "distance": 24.05758514595159
  },
  {
    "name": "El Dorado Co Public Health",
    "address": "1360 Johnson Blvd, Ste 103, South Lake Tahoe, CA 96150",
    "phone": "(530) 573-3155",
    "type": "public",
    "lat": 38.933029,
    "lng": -119.971626,
    "distance": 24.84869568625868
  },
  {
    "name": "Arnold Fmly Med Ctrsonora Reg Mc",
    "address": "2037 Hwy 4, Arnold, CA 95223",
    "phone": "(209) 795-1270",
    "type": "private",
    "lat": 38.241959,
    "lng": -120.360817,
    "distance": 38.55779946769068
  },
  {
    "name": "Maryal Concepcion Md Pc",
    "address": "2855 Mckenzie Ave, Arnold, CA 95223",
    "phone": "(209) 653-2135",
    "type": "private",
    "lat": 38.231091,
    "lng": -120.368668,
    "distance": 39.36580032257612
  },
  {
    "name": "Western Sierra Medical Clinic Inc",
    "address": "8665 Salmon Ave, Pob 1785, Kings Beach, CA 96143",
    "phone": "(530) 584-9762",
    "type": "fqhc",
    "lat": 39.236359,
    "lng": -120.021439,
    "distance": 45.67201507851328
  },
  {
    "name": "Tuolumne Me-wuk Indian Health Ctr",
    "address": "18880 Cherry Valley Blvd, Tuolumne, CA 95379",
    "phone": "(209) 928-5400",
    "type": "public",
    "lat": 37.965199,
    "lng": -120.240479,
    "distance": 49.44271992343919
  },
  {
    "name": "Western Sierra Medical Center",
    "address": "3070 Camino Heights Dr, Ste B, Camino, CA 95709",
    "phone": "(530) 651-2000",
    "type": "private",
    "lat": 38.735973,
    "lng": -120.711311,
    "distance": 49.55684270426353
  },
  {
    "name": "Tuolumne Me-wukc Cedar Rd Center",
    "address": "22044 Cedar Road, Sonora, CA 95370",
    "phone": "(209) 928-5400",
    "type": "public",
    "lat": 37.985291,
    "lng": -120.365578,
    "distance": 51.84424741544595
  },
  {
    "name": "Tuolumne County Health Department",
    "address": "20111 Cedar Rd, Sonora, CA 95370",
    "phone": "(209) 533-7401",
    "type": "public",
    "lat": 37.982491,
    "lng": -120.364326,
    "distance": 51.962945342085895
  },
  {
    "name": "Jackson Rancheria Health Complex",
    "address": "12140 New York Ranch Rd, Jackson, CA 95642",
    "phone": "(209) 257-2400",
    "type": "VFA",
    "lat": 38.384598,
    "lng": -120.740219,
    "distance": 52.36816930336668
  },
  {
    "name": "Adventist Health Sonora Rural Healt",
    "address": "193 Fairview Ln, Ste L, Sonora, CA 95370",
    "phone": "(209) 536-5120",
    "type": "public",
    "lat": 37.97871,
    "lng": -120.390907,
    "distance": 53.01988669450139
  },
  {
    "name": "Marshall Center For  Primary Care",
    "address": "1095 Marshall Way, Placerville, CA 95667",
    "phone": "(530) 626-2920",
    "type": "private",
    "lat": 38.72578,
    "lng": -120.791115,
    "distance": 53.667810997784166
  },
  {
    "name": "James Dalton Medical Office",
    "address": "590 Stanislaus Ave, Angels Camp, CA 95222",
    "phone": "(209) 736-0813",
    "type": "public",
    "lat": 38.075943,
    "lng": -120.550346,
    "distance": 53.85285335246958
  },
  {
    "name": "El Dorado Co Hhsa Public Health",
    "address": "931 Spring St, Placerville, CA 95667",
    "phone": "(530) 621-6155",
    "type": "public",
    "lat": 38.733688,
    "lng": -120.802788,
    "distance": 54.378824903248365
  },
  {
    "name": "Sutter Amador Pediatric  Center",
    "address": "100 Mission Blvd, Ste 2600, Jackson, CA 95642",
    "phone": "(209) 257-1725",
    "type": "public",
    "lat": 38.351559,
    "lng": -120.766968,
    "distance": 54.43506988549856
  },
  {
    "name": "Calaveras Co Health Department",
    "address": "700 Mountain Ranch Rd, Ste C-2, San Andreas, CA 95249",
    "phone": "(209) 754-6460",
    "type": "public",
    "lat": 38.188927,
    "lng": -120.670975,
    "distance": 54.43938126891643
  },
  {
    "name": "Tahoe Forest Multispecialty Clinics",
    "address": "10956 Donner Pass Rd Ste 310, Truckee, CA 96161",
    "phone": "(530) 587-3523",
    "type": "fqhc",
    "lat": 39.32658,
    "lng": -120.200722,
    "distance": 54.65750511698028
  },
  {
    "name": "Mact Medical, San Andreas",
    "address": "1113 Highway 49, San Andreas, CA 95249",
    "phone": "(209) 755-1400",
    "type": "VFA",
    "lat": 38.207878,
    "lng": -120.698601,
    "distance": 55.07055213587885
  },
  {
    "name": "Marshall Center For Primary Care",
    "address": "4341a Golden Center Dr, Placerville, CA 95667",
    "phone": "(530) 626-1144",
    "type": "private",
    "lat": 38.706001,
    "lng": -120.826485,
    "distance": 55.353788510915535
  },
  {
    "name": "Marshall Sierra Primary Medicine",
    "address": "4341b Golden Center Dr, Placerville, CA 95667",
    "phone": "(530) 621-3600",
    "type": "private",
    "lat": 38.705826,
    "lng": -120.826897,
    "distance": 55.37421518623142
  },
  {
    "name": "Mathiesen Memorial Health Clinic",
    "address": "18144 Seco St, Jamestown, CA 95327",
    "phone": "(209) 984-4820",
    "type": "public",
    "lat": 37.951981,
    "lng": -120.421883,
    "distance": 55.507722489782076
  },
  {
    "name": "Amador County Public Health",
    "address": "10877 Conductor Blvd, Ste 400, Sutter Creek, CA 95685",
    "phone": "(209) 223-6407",
    "type": "public",
    "lat": 38.364571,
    "lng": -120.81813,
    "distance": 56.80806497008495
  },
  {
    "name": "Shingle Springs Tribal Hlth Prgm",
    "address": "5168 Honpie Rd, Placerville, CA 95667",
    "phone": "(530) 387-4975",
    "type": "public",
    "lat": 38.694649,
    "lng": -120.902077,
    "distance": 59.306396800945826
  },
  {
    "name": "Divide Wellness Center",
    "address": "6065 State Highway 193, Georgetown, CA 95634",
    "phone": "(530) 333-2548",
    "type": "fqhc",
    "lat": 38.908428,
    "lng": -120.85173,
    "distance": 60.120053334179566
  },
  {
    "name": "John C Fremont Northside Clinic",
    "address": "6386 Greeley Hill Rd, Coulterville, CA 95311",
    "phone": "(209) 878-0155",
    "type": "fqhc",
    "lat": 37.741714,
    "lng": -120.13163,
    "distance": 61.56094396076495
  },
  {
    "name": "Marshall Family Medicine",
    "address": "3581 Palmer Dr, Ste 602, Cameron Park, CA 95682",
    "phone": "(530) 672-7000",
    "type": "private",
    "lat": 38.662022,
    "lng": -120.964706,
    "distance": 62.47451322697078
  },
  {
    "name": "Valley Springs Health Wellness Ctr",
    "address": "51 Wellness Way, Valley Springs, CA 95252",
    "phone": "(209) 772-7070",
    "type": "fqhc",
    "lat": 38.168507,
    "lng": -120.83976,
    "distance": 63.09893165846223
  },
  {
    "name": "Mact Medical, Ione",
    "address": "305 Preston Ave, Ione, CA 95640",
    "phone": "(209) 674-6182",
    "type": "public",
    "lat": 38.352959,
    "lng": -120.93528,
    "distance": 63.12704447995406
  },
  {
    "name": "Marshall Center For Primary Care",
    "address": "5137 Golden Foothill Pkwy, Ste 120, El Dorado Hills, CA 9576",
    "phone": "(916) 933-8010",
    "type": "private",
    "lat": 38.640129,
    "lng": -121.069588,
    "distance": 68.0479578811665
  },
  {
    "name": "Stallant Health",
    "address": "20601 W Paoli Ln, Weimar, CA 95736",
    "phone": "(530) 637-4025",
    "type": "fqhc",
    "lat": 39.036999,
    "lng": -120.976433,
    "distance": 69.77767414553419
  },
  {
    "name": "Nativity Pediarics, Inc",
    "address": "740 Oak Avenue Pkwy, Ste 145, Folsom, CA 95630",
    "phone": "(916) 984-9588",
    "type": "private",
    "lat": 38.665184,
    "lng": -121.135963,
    "distance": 71.70983867417856
  },
  {
    "name": "Mission Care Pediatrics",
    "address": "2170 E Bidwell St, Ste 100, Folsom, CA 95630",
    "phone": "(916) 983-8696",
    "type": "private",
    "lat": 38.667309,
    "lng": -121.14357,
    "distance": 72.128309026578
  },
  {
    "name": "Chapa-de Indian Hlth Program",
    "address": "11670 Atwood Rd, Auburn, CA 95603",
    "phone": "(530) 887-2810",
    "type": "public",
    "lat": 38.93338,
    "lng": -121.098717,
    "distance": 73.21783971942618
  },
  {
    "name": "Sutter  Pediatrics",
    "address": "11795 Education St, Ste 100, Auburn, CA 95602",
    "phone": "(530) 886-2300",
    "type": "private",
    "lat": 38.945038,
    "lng": -121.098946,
    "distance": 73.48447591613063
  },
  {
    "name": "Placer County Public Health",
    "address": "11459 F Ave, Auburn, CA 95603",
    "phone": "(530) 889-7169",
    "type": "public",
    "lat": 38.936218,
    "lng": -121.103867,
    "distance": 73.54202743533665
  },
  {
    "name": "Western Sierra Medical Clinic Inc",
    "address": "11720 Education St, Ste 3 Auburn, CA 95602",
    "phone": "(530) 537-3000",
    "type": "fqhc",
    "lat": 38.944038,
    "lng": -121.102043,
    "distance": 73.62000685273674
  },
  {
    "name": "Mariposa Indian Health Center",
    "address": "5192 Hospital Road, Mariposa, CA 95338",
    "phone": "(209) 742-6144",
    "type": "VFA",
    "lat": 37.500801,
    "lng": -119.976753,
    "distance": 76.22185935208985
  },
  {
    "name": "John C Fremont Healthcare District",
    "address": "5189 Hospital Rd, Mariposa, CA 95338",
    "phone": "(209) 966-0850",
    "type": "fqhc",
    "lat": 37.500389,
    "lng": -119.977669,
    "distance": 76.25605781842476
  },
  {
    "name": "Community Health Centers Of America",
    "address": "5320 State Highway 49 Ste 1, Mariposa, CA 95338",
    "phone": "(209) 966-2344",
    "type": "public",
    "lat": 37.499928,
    "lng": -119.983376,
    "distance": 76.32539536683896
  },
  {
    "name": "Mariposa Co Health Department",
    "address": "5300 State Hwy 49 North, Mariposa, CA 95338",
    "phone": "(209) 966-3689",
    "type": "public",
    "lat": 37.49778,
    "lng": -119.982094,
    "distance": 76.46412852666701
  },
  {
    "name": "Sutter Roseville Peds",
    "address": "3100 Douglas Blvd, Fl 1, Roseville, CA 95661",
    "phone": "(916) 782-5956",
    "type": "private",
    "lat": 38.74329,
    "lng": -121.235023,
    "distance": 77.52576919324771
  },
  {
    "name": "Uc Davis Health Roseville",
    "address": "1620 E Roseville Pkwy, Ste 200, Roseville, CA 95661",
    "phone": "(916) 783-7109",
    "type": "private",
    "lat": 38.748596,
    "lng": -121.242516,
    "distance": 77.97232723970157
  },
  {
    "name": "Sierra Co Health Department",
    "address": "202 Front St, Loyalton, CA 96118",
    "phone": "(530) 993-6700",
    "type": "public",
    "lat": 39.674389,
    "lng": -120.240913,
    "distance": 77.99789116674155
  },
  {
    "name": "Loyalton Medical Clinic",
    "address": "701 Main Street, Loyalton, CA 96118",
    "phone": "(530) 993-1231",
    "type": "fqhc",
    "lat": 39.676056,
    "lng": -120.241417,
    "distance": 78.11582490500979
  },
  {
    "name": "Nevada County Health Department",
    "address": "500 Crown Point Cir, Ste 110, Grass Valley, CA 95945",
    "phone": "(530) 265-7049",
    "type": "public",
    "lat": 39.219849,
    "lng": -121.031464,
    "distance": 78.53633278544783
  },
  {
    "name": "Marita Barlahan-biag,md, Inc",
    "address": "11200 Gold Express Dr, Ste D, Gold River, CA 95670",
    "phone": "(916) 638-0600",
    "type": "private",
    "lat": 38.622559,
    "lng": -121.26564,
    "distance": 78.594913504041
  },
  {
    "name": "Carl C Hsu",
    "address": "1995 Zinfandel Dr, Ste 105, Rancho Cordova, CA 95670",
    "phone": "(916) 638-4000",
    "type": "private",
    "lat": 38.612049,
    "lng": -121.271309,
    "distance": 78.89318654497845
  },
  {
    "name": "Kaiser Permanente, Roseville",
    "address": "1840 Sierra Gardens Dr, Roseville, CA 95661",
    "phone": "(916) 787-6465",
    "type": "private",
    "lat": 38.74781,
    "lng": -121.261124,
    "distance": 78.96024807067084
  },
  {
    "name": "Mho Medical Services, Inc",
    "address": "12417 Fair Oaks Blvd, Ste 550, Fair Oaks, CA 95628",
    "phone": "(916) 753-5762",
    "type": "private",
    "lat": 38.639263,
    "lng": -121.273811,
    "distance": 79.0618954485646
  },
  {
    "name": "Western Sierra Med Clinic",
    "address": "844 Old Tunnel Rd, Grass Valley, CA 95945",
    "phone": "(530) 274-9762",
    "type": "fqhc",
    "lat": 39.236179,
    "lng": -121.031197,
    "distance": 77.24590860104549
  },
  {
    "name": "Chapa De Indian Health Program, Inc",
    "address": "1350 E Main St, Grass Valley, CA 95945",
    "phone": "(530) 477-1727",
    "type": "public",
    "lat": 39.233086,
    "lng": -121.046097,
    "distance": 77.81678891208882
  },
  {
    "name": "Sierra Care Physicians Pediatrics",
    "address": "140 Litton Dr, Ste 100, Grass Valley, CA 95945",
    "phone": "(530) 272-9780",
    "type": "private",
    "lat": 39.233677,
    "lng": -121.052773,
    "distance": 78.1441772845241
  },
  {
    "name": "Lakshmi K Avala Md",
    "address": "6000 Fairway Dr, Ste 3 Rocklin, CA 95677",
    "phone": "(916) 782-3786",
    "type": "private",
    "lat": 38.792763,
    "lng": -121.262527,
    "distance": 78.9382575191686
  },
  {
    "name": "Mammoth Hospital Pediatric Clinic",
    "address": "85 Sierra Park Rd, Ste A, Mammoth Lakes, CA 93546",
    "phone": "(760) 924-4000",
    "type": "fqhc",
    "lat": 37.645756,
    "lng": -118.963905,
    "distance": 77.38860790622181
  },
  {
    "name": "Mono Co Health Department",
    "address": "1290 Tavern Rd, Suite 246, Mammoth Lakes, CA 93546",
    "phone": "(760) 924-1830",
    "type": "public",
    "lat": 37.645069,
    "lng": -118.962883,
    "distance": 77.45994260027412
  },
  {
    "name": "Pathway Healthcare",
    "address": "190 S Oak Ave, Ste 2-1, Oakdale, CA 95361",
    "phone": "(209) 848-8410",
    "type": "private",
    "lat": 37.759281,
    "lng": -120.861938,
    "distance": 78.86822568792125
  },
  {
    "name": "Oakdale Community Health Center",
    "address": "1420 W H St, Oakdale, CA 95361",
    "phone": "(209) 848-4180",
    "type": "public",
    "lat": 37.75869,
    "lng": -120.862732,
    "distance": 78.92778754930696
  },
  {
    "name": "Wellspace Health",
    "address": "7777 Sunrise Blvd, Ste 2500 Citrus Heights, CA 95610",
    "phone": "(916) 737-5555",
    "type": "fqhc",
    "lat": 38.706535,
    "lng": -121.273407,
    "distance": 76.6295516690879
  },
  {
    "name": "Kaiser Permanente, Rancho Cordova",
    "address": "10725 International Drive, Rancho Cordova, CA 95",
    "phone": "(916) 631-2515",
    "type": "private",
    "lat": 38.611774,
    "lng": -121.282867,
    "distance": 76.81756896200231
  }
]