[
  {
    "name": "North Country Clinic",
    "address": "785 18th St, Arcata, CA 95521",
    "phone": "(707) 822-2481",
    "type": "fqhc",
    "lat": 40.875889,
    "lng": -124.083778,
    "distance": 0.6507561289981937
  },
  {
    "name": "United Indian Health Serv Arcata",
    "address": "1600 Weeot Way, Arcata, CA 95521",
    "phone": "(707) 825-5010",
    "type": "public",
    "lat": 40.898083,
    "lng": -124.092285,
    "distance": 2.237840989995846
  },
  {
    "name": "Uihs - Valley East",
    "address": "4715 Valley East Blvd, Arcata, CA 95521",
    "phone": "(707) 825-5000",
    "type": "public",
    "lat": 40.901386,
    "lng": -124.082016,
    "distance": 2.410904303267453
  },
  {
    "name": "Humboldt Open Door Cl-mckinleyville",
    "address": "1644 Central Ave, Mckinleyville, CA 95519",
    "phone": "(707) 839-3068",
    "type": "fqhc",
    "lat": 40.935078,
    "lng": -124.102005,
    "distance": 4.843543823445302
  },
  {
    "name": "Echc Pediatrics",
    "address": "2200 Tydd St, Eureka, CA 95501",
    "phone": "(707) 269-7051",
    "type": "fqhc",
    "lat": 40.801899,
    "lng": -124.145241,
    "distance": 5.530049993336541
  },
  {
    "name": "United Indian Health Srv - Eureka",
    "address": "2505 Lucas St, Ste A, Eureka, CA 95501",
    "phone": "(707) 442-0380",
    "type": "public",
    "lat": 40.791428,
    "lng": -124.139305,
    "distance": 5.9696029344469315
  },
  {
    "name": "Humboldt County Public Health",
    "address": "529 I St, Eureka, CA 95501",
    "phone": "(707) 268-2155",
    "type": "public",
    "lat": 40.802109,
    "lng": -124.162575,
    "distance": 6.098347877003171
  },
  {
    "name": "Redwood Community Health Center",
    "address": "2350 Buhne St Ste A, Eureka, CA 95501",
    "phone": "(707) 443-4593",
    "type": "fqhc",
    "lat": 40.785461,
    "lng": -124.14222,
    "distance": 6.403707140780879
  },
  {
    "name": "Fortuna Family Medical Group",
    "address": "874 Main St, Fortuna, CA 95540",
    "phone": "(707) 725-3334",
    "type": "fqhc",
    "lat": 40.598251,
    "lng": -124.158592,
    "distance": 18.955401281662613
  },
  {
    "name": "Fortuna Family Medicine Inc",
    "address": "2404 Newburg Rd, Fortuna, CA 95540",
    "phone": "(707) 617-2002",
    "type": "private",
    "lat": 40.59074,
    "lng": -124.140701,
    "distance": 19.294037923379697
  },
  {
    "name": "Fortuna Community Health Center",
    "address": "3750 Rohnerville Rd, Fortuna, CA 95540",
    "phone": "(707) 725-6101",
    "type": "private",
    "lat": 40.582275,
    "lng": -124.130898,
    "distance": 19.800081175474897
  },
  {
    "name": "Providence Family Practice",
    "address": "3302 Renner Dr, Ste A, Fortuna, CA 95540",
    "phone": "(707) 725-3318",
    "type": "fqhc",
    "lat": 40.582462,
    "lng": -124.136024,
    "distance": 19.823232375531653
  },
  {
    "name": "Redwoods Rural Hc - Fortuna",
    "address": "930 S Fortuna Blvd, Fortuna, CA 95540",
    "phone": "(707) 353-2162",
    "type": "fqhc",
    "lat": 40.581516,
    "lng": -124.147179,
    "distance": 19.978187977872356
  },
  {
    "name": "Ferndale Community Health Center",
    "address": "638 Main St, Ferndale, CA 95536",
    "phone": "(707) 786-4028",
    "type": "private",
    "lat": 40.5784,
    "lng": -124.26136,
    "distance": 21.99378007045176
  },
  {
    "name": "United Indian Health Serv Weitchpec",
    "address": "Highway 96 And Highway 169, Weitchpec, CA 95546",
    "phone": "(530) 625-4300",
    "type": "public",
    "lat": 40.952698,
    "lng": -123.641052,
    "distance": 23.824573761506347
  },
  {
    "name": "Willow Creek Community Health Ctr",
    "address": "38883 Hwy 299, Willow Creek, CA 95573",
    "phone": "(530) 629-3111",
    "type": "fqhc",
    "lat": 40.94035,
    "lng": -123.633438,
    "distance": 24.016238704500633
  },
  {
    "name": "Kimaw Medical Center",
    "address": "535 Airport Road, Hoopa, CA 95546",
    "phone": "(530) 625-4261",
    "type": "public",
    "lat": 41.041851,
    "lng": -123.664635,
    "distance": 24.959936372159984
  },
  {
    "name": "Scotia Bluffs Chc",
    "address": "115 Main St., Scotia, CA 95565",
    "phone": "(707) 764-5617",
    "type": "fqhc",
    "lat": 40.484482,
    "lng": -124.102188,
    "distance": 26.416080631289844
  },
  {
    "name": "The Wecare Group, Inc.",
    "address": "321 Van Duzen Rd, Mad River, CA 95526",
    "phone": "(707) 574-6616",
    "type": "fqhc",
    "lat": 40.460751,
    "lng": -123.529778,
    "distance": 40.32630146038517
  },
  {
    "name": "Karuk Tribe Orleans Medical Clinic",
    "address": "325 Asip Road, Orleans, CA 95556",
    "phone": "(530) 627-3452",
    "type": "public",
    "lat": 41.300709,
    "lng": -123.548241,
    "distance": 40.930196175055464
  },
  {
    "name": "Hayfork Community Hlth Clinic",
    "address": "6961 Highway 3, Hayfork, CA 96041",
    "phone": "(530) 628-5517",
    "type": "fqhc",
    "lat": 40.554211,
    "lng": -123.18605,
    "distance": 51.688424848351026
  },
  {
    "name": "Redwoods Rural Health Center",
    "address": "101 West Coast Rd, Redway, CA 95560",
    "phone": "(707) 923-2783",
    "type": "VFA",
    "lat": 40.116817,
    "lng": -123.813217,
    "distance": 53.703284937580435
  },
  {
    "name": "Southern Humboldt Community Clinic",
    "address": "733 Cedar St, Garberville, CA 95542",
    "phone": "(707) 923-3921",
    "type": "fqhc",
    "lat": 40.10157,
    "lng": -123.792442,
    "distance": 55.01342361386195
  },
  {
    "name": "Trinity Community Health Clinic",
    "address": "31 Easter Avenue, Weaverville, CA 96093",
    "phone": "(530) 623-4186",
    "type": "fqhc",
    "lat": 40.737389,
    "lng": -122.939941,
    "distance": 60.43880764577095
  },
  {
    "name": "Redding Rancheria Trinity Healthctr",
    "address": "81 Arbuckle Court, Weaverville, CA 96093",
    "phone": "(530) 623-0021",
    "type": "public",
    "lat": 40.711479,
    "lng": -122.926498,
    "distance": 61.432713024278875
  },
  {
    "name": "Del Norte County Hlth  Soc Servc",
    "address": "400 L St, Crescent City, CA 95531",
    "phone": "(707) 464-0861",
    "type": "public",
    "lat": 41.754875,
    "lng": -124.195076,
    "distance": 61.66054171065393
  },
  {
    "name": "Stallant Health Crescent City",
    "address": "515 E Washington Blvd, Crescent City, CA 95531",
    "phone": "(707) 460-1802",
    "type": "fqhc",
    "lat": 41.772224,
    "lng": -124.198997,
    "distance": 62.87318716883048
  },
  {
    "name": "Del Norte Community Hlth Ctr",
    "address": "550 E Washington Blvd, Ste 100, Crescent City, CA 95531",
    "phone": "(707) 465-6925",
    "type": "fqhc",
    "lat": 41.773369,
    "lng": -124.198563,
    "distance": 62.94973635436696
  },
  {
    "name": "Sutter Coast Community Clinic",
    "address": "780 E Washington Blvd, Ste 202, Crescent City, CA 95531",
    "phone": "(707) 464-6715",
    "type": "private",
    "lat": 41.775436,
    "lng": -124.194649,
    "distance": 63.07292687664353
  },
  {
    "name": "Karuk Community Health Clinic",
    "address": "64236 Second Ave, Happy Camp, CA 96039",
    "phone": "(530) 493-5257",
    "type": "public",
    "lat": 41.791592,
    "lng": -123.379883,
    "distance": 73.5942572699417
  },
  {
    "name": "Scott Valley Rural Health Clinic",
    "address": "8 Commercial St, Etna, CA 96027",
    "phone": "(530) 467-5393",
    "type": "fqhc",
    "lat": 41.462639,
    "lng": -122.890182,
    "distance": 74.46660316251958
  },
  {
    "name": "Anav Tribal Health Clinic",
    "address": "9024 Sniktaw Ln, Fort Jones, CA 96032",
    "phone": "(530) 468-4470",
    "type": "public",
    "lat": 41.598869,
    "lng": -122.97596,
    "distance": 76.60776977935919
  },
  {
    "name": "Round Valley Indian Health Clinic",
    "address": "24065 Biggar Ln, Covelo Ca 95428",
    "phone": "(707) 983-6181",
    "type": "public",
    "lat": 39.809284,
    "lng": -123.246948,
    "distance": 85.28970104927134
  },
  {
    "name": "Long Valley Health Center",
    "address": "50 Branscomb Rd, Laytonville, CA 95454",
    "phone": "(707) 984-6131",
    "type": "fqhc",
    "lat": 39.688217,
    "lng": -123.484306,
    "distance": 87.31525544529535
  },
  {
    "name": "Mercy Family Health Center",
    "address": "2480 Sonoma St, Redding, CA 96001",
    "phone": "(530) 225-7836",
    "type": "public",
    "lat": 40.5737,
    "lng": -122.404091,
    "distance": 90.2094298466321
  },
  {
    "name": "Shasta Lake Family Health Center",
    "address": "4215 Front St, Shasta Lake, CA 96019",
    "phone": "(530) 646-3959",
    "type": "fqhc",
    "lat": 40.681114,
    "lng": -122.370369,
    "distance": 90.51610355687399
  },
  {
    "name": "Redding Rancheria Tribal Health",
    "address": "1441 Liberty St, Redding, CA 96001",
    "phone": "(530) 226-1726",
    "type": "public",
    "lat": 40.585911,
    "lng": -122.386597,
    "distance": 90.91085085744156
  },
  {
    "name": "Schc Residency",
    "address": "1035 Placer St, Redding, CA 96001",
    "phone": "(530) 646-3959",
    "type": "fqhc",
    "lat": 40.582821,
    "lng": -122.385391,
    "distance": 91.02026925969177
  },
  {
    "name": "Schc Peds",
    "address": "1035 Placer St, Redding, CA 96001",
    "phone": "(530) 646-3959",
    "type": "fqhc",
    "lat": 40.582821,
    "lng": -122.385391,
    "distance": 91.02026925969177
  },
  {
    "name": "Schc Fellowship",
    "address": "1035 Placer St, Redding, CA 96001",
    "phone": "(530) 646-3959",
    "type": "fqhc",
    "lat": 40.582821,
    "lng": -122.385391,
    "distance": 91.02026925969177
  },
  {
    "name": "Schc Family Practice",
    "address": "1035 Placer St, Redding, CA 96001",
    "phone": "(530) 646-3959",
    "type": "fqhc",
    "lat": 40.582821,
    "lng": -122.385391,
    "distance": 91.02026925969177
  },
  {
    "name": "Schc Urgent Care",
    "address": "1035 Placer St, Redding, CA 96001",
    "phone": "(530) 646-3959",
    "type": "fqhc",
    "lat": 40.582821,
    "lng": -122.385391,
    "distance": 91.02026925969177
  },
  {
    "name": "Shasta Countyhhsapublic Health Br",
    "address": "2650 Breslauer Way, Redding, CA 96001",
    "phone": "(530) 229-8463",
    "type": "public",
    "lat": 40.550838,
    "lng": -122.378349,
    "distance": 91.9005452620159
  },
  {
    "name": "Churn Creek Healthcare",
    "address": "3184 Churn Creek Rd, Redding, CA 96002",
    "phone": "(530) 768-2436",
    "type": "public",
    "lat": 40.56142,
    "lng": -122.353737,
    "distance": 92.97783555939792
  },
  {
    "name": "Schc Enterprise",
    "address": "3270 Churn Creek Rd, Redding, CA 96002",
    "phone": "(530) 229-5114",
    "type": "fqhc",
    "lat": 40.56002,
    "lng": -122.353546,
    "distance": 93.01046647257769
  },
  {
    "name": "Karuk Tribal Clinic",
    "address": "1519 S Oregon St, Yreka, CA 96097",
    "phone": "(530) 842-9200",
    "type": "public",
    "lat": 41.717072,
    "lng": -122.642792,
    "distance": 95.09437859010089
  },
  {
    "name": "Siskiyou County Health Department",
    "address": "810 S Main St, Yreka, CA 96097",
    "phone": "(530) 841-2145",
    "type": "public",
    "lat": 41.725754,
    "lng": -122.638313,
    "distance": 95.64454228515723
  },
  {
    "name": "Weed Health Center",
    "address": "50 Alamo Ave, Weed, CA 96094",
    "phone": "(530) 999-9050",
    "type": "private",
    "lat": 41.426754,
    "lng": -122.384842,
    "distance": 96.45572713698783
  },
  {
    "name": "Mercy Mt Shasta Community Clinic",
    "address": "912 Pine St, Mount Shasta, CA 96067",
    "phone": "(530) 926-7131",
    "type": "fqhc",
    "lat": 41.318932,
    "lng": -122.323112,
    "distance": 96.81965728609303
  },
  {
    "name": "Mercy Pine Street Clinic",
    "address": "408 Pine St, Mount Shasta, CA 96067",
    "phone": "(530) 926-7196",
    "type": "fqhc",
    "lat": 41.31324,
    "lng": -122.3153,
    "distance": 97.08280255143123
  },
  {
    "name": "Adventist Health Mendocino Coast",
    "address": "721a River Dr, Ste A, Fort Bragg, CA 95437",
    "phone": "(707) 961-4631",
    "type": "fqhc",
    "lat": 39.432255,
    "lng": -123.801498,
    "distance": 96.79568481395913
  },
  {
    "name": "Mendocino Coast Clinics Ped Grp",
    "address": "510 Cypress St, Ste D, Fort Bragg, CA 95437",
    "phone": "(707) 964-5696",
    "type": "fqhc",
    "lat": 39.432171,
    "lng": -123.798958,
    "distance": 96.82211379732885
  },
  {
    "name": "Anderson Family Health Center",
    "address": "2965 East St, Anderson, CA 96007",
    "phone": "(530) 246-5833",
    "type": "fqhc",
    "lat": 40.451839,
    "lng": -122.298248,
    "distance": 96.9075135838024
  },
  {
    "name": "Andersonrx",
    "address": "2940 East St, Anderson, CA 96007",
    "phone": "(530) 378-5566",
    "type": "private",
    "lat": 40.450863,
    "lng": -122.298294,
    "distance": 96.92342143935592
  },
  {
    "name": "Ahuv Fort Bragg Rhc",
    "address": "850 Sequoia Cir, Fort Bragg, CA 95437",
    "phone": "(707) 964-0259",
    "type": "fqhc",
    "lat": 39.430328,
    "lng": -123.801926,
    "distance": 96.92379322548884
  }
]