[
  {
    "name": "Sacramento Native Amer Health Ctr",
    "address": "2020 J St, Sacramento, CA 95811",
    "phone": "(916) 341-0575",
    "type": "VFA",
    "lat": 38.576199,
    "lng": -121.479362,
    "distance": 0.893923476975617
  },
  {
    "name": "Elica Health Center- V Street Medic",
    "address": "923 V St, Sacramento, CA 95818",
    "phone": "(916) 454-2345",
    "type": "fqhc",
    "lat": 38.567532,
    "lng": -121.499718,
    "distance": 1.0136501157590085
  },
  {
    "name": "One Community Health Midtown",
    "address": "1500 21st St Bldg B, Sacramento, CA 95811",
    "phone": "(916) 443-3299",
    "type": "VFA",
    "lat": 38.57058,
    "lng": -121.481491,
    "distance": 1.0325362063194892
  },
  {
    "name": "Sutter Medical Center Sacramento",
    "address": "2825 Capitol Ave, Sacramento, CA 95816",
    "phone": "(916) 887-0350",
    "type": "private",
    "lat": 38.570751,
    "lng": -121.469566,
    "distance": 1.5367302117567287
  },
  {
    "name": "West Sac Pediatric Medical Group",
    "address": "1035 Jefferson Blvd Ste 1, West Sacramento, CA 95691",
    "phone": "(916) 371-3787",
    "type": "private",
    "lat": 38.573402,
    "lng": -121.523506,
    "distance": 1.6711816646095619
  },
  {
    "name": "Vida Family Health",
    "address": "954 Sacramento Ave, West Sacramento, CA 95605",
    "phone": "(916) 914-2650",
    "type": "fqhc",
    "lat": 38.589664,
    "lng": -121.524963,
    "distance": 1.742301364378534
  },
  {
    "name": "Alhambra Family Medicine",
    "address": "1201 Alhambra Blvd, Ste 330, Sacramento, CA 95816",
    "phone": "(916) 451-4400",
    "type": "private",
    "lat": 38.570068,
    "lng": -121.465698,
    "distance": 1.7432155106334226
  },
  {
    "name": "Mercy Medical Group",
    "address": "3000 Q St, Fl 2, Sacramento, CA 95816",
    "phone": "(916) 733-3305",
    "type": "private",
    "lat": 38.56498,
    "lng": -121.469643,
    "distance": 1.7628388229341532
  },
  {
    "name": "Uc Davis Medical Center, Upa Clinic",
    "address": "3160 Folsom Blvd, Ste 2900, Sacramento, CA 95816",
    "phone": "(916) 734-5846",
    "type": "private",
    "lat": 38.568432,
    "lng": -121.465874,
    "distance": 1.7895645170625991
  },
  {
    "name": "Salud Clinic",
    "address": "500 Jefferson Blvd, # 180, West Sacramento, CA 95605",
    "phone": "(916) 403-2900",
    "type": "VFA",
    "lat": 38.587589,
    "lng": -121.527618,
    "distance": 1.8413270180924035
  },
  {
    "name": "Sutter Med Grp Peds",
    "address": "1625 Stockton Blvd, Ste 106, Sacramento, CA 95816",
    "phone": "(916) 262-9005",
    "type": "private",
    "lat": 38.565819,
    "lng": -121.466843,
    "distance": 1.845323387432429
  },
  {
    "name": "Elica Health Center",
    "address": "155 15th St Ste A, W Sacramento, CA 95691",
    "phone": "(916) 454-2345",
    "type": "VFA",
    "lat": 38.570858,
    "lng": -121.525955,
    "distance": 1.8591744637672345
  },
  {
    "name": "Pucci's Pharmacy",
    "address": "3257 Folsom Blvd, Sacramento, CA 95816",
    "phone": "#N/A",
    "type": "private",
    "lat": 38.567905,
    "lng": -121.464371,
    "distance": 1.8780043159727475
  },
  {
    "name": "Wellspace Health Alhambra",
    "address": "2425 Alhambra Blvd, Sacramento, CA 95817",
    "phone": "(916) 737-5555",
    "type": "fqhc",
    "lat": 38.556259,
    "lng": -121.471863,
    "distance": 2.132704428506231
  },
  {
    "name": "Elica Health Center",
    "address": "3701 J St, Ste 201, Sacramento, CA 95816",
    "phone": "(916) 454-2345",
    "type": "fqhc",
    "lat": 38.570862,
    "lng": -121.456688,
    "distance": 2.168087172282371
  },
  {
    "name": "River Bend Medical Associates",
    "address": "2101 Stone Blvd, Ste 190, W Sacramento, CA 95691",
    "phone": "(916) 392-3186",
    "type": "private",
    "lat": 38.562721,
    "lng": -121.538322,
    "distance": 2.7077221675384147
  },
  {
    "name": "Ucdmc Pediatric Ambulatory Serv",
    "address": "2521 Stockton Blvd, Rm 2200, Sacramento, CA 95817",
    "phone": "(916) 734-1189",
    "type": "private",
    "lat": 38.55204,
    "lng": -121.455338,
    "distance": 2.9369445095328763
  },
  {
    "name": "East Sac Pediatric Med Group, Inc",
    "address": "5030 J St Ste 301, Sacramento, CA 95819",
    "phone": "(916) 451-8430",
    "type": "private",
    "lat": 38.566406,
    "lng": -121.44207,
    "distance": 3.0155557755111255
  },
  {
    "name": "Wellspace Oak Park Community Clinic",
    "address": "3415 Martin Luther King Jr Blvd, Sacramento, CA 95817",
    "phone": "(916) 737-5555",
    "type": "fqhc",
    "lat": 38.543541,
    "lng": -121.464218,
    "distance": 3.094347440772985
  },
  {
    "name": "Elica Health Centers Halyard",
    "address": "1276 Halyard Dr, West Sacramento, CA 95691",
    "phone": "(916) 454-2345",
    "type": "VFA",
    "lat": 38.573219,
    "lng": -121.55069,
    "distance": 3.095317880444026
  },
  {
    "name": "Ucdmc Family Practice And Comm Med",
    "address": "4860 Y St, Ste 1600, Sacramento, CA 95817",
    "phone": "(916) 734-3630",
    "type": "private",
    "lat": 38.552555,
    "lng": -121.448868,
    "distance": 3.174742191166684
  },
  {
    "name": "Land Park Pediatric Medical Group",
    "address": "4617 Freeport Blvd, Ste B, Sacramento, CA 95822",
    "phone": "(916) 422-7273",
    "type": "private",
    "lat": 38.533298,
    "lng": -121.493912,
    "distance": 3.337621798670938
  },
  {
    "name": "Sacramento Community Fong Ranch",
    "address": "3301 Fong Ranch Rd, Sacramento, CA 95834",
    "phone": "(916) 642-1867",
    "type": "fqhc",
    "lat": 38.630619,
    "lng": -121.495651,
    "distance": 3.3877716914752956
  },
  {
    "name": "Sacramento Community Clinic",
    "address": "965 El Camino Ave, Sacramento, CA 95815",
    "phone": "(916) 642-1867",
    "type": "fqhc",
    "lat": 38.611683,
    "lng": -121.44455,
    "distance": 3.4012136438849794
  },
  {
    "name": "Kaiser Pharmacy-point West Main",
    "address": "1650 Response Rd, Sacramento, CA 95815",
    "phone": "(916) 614-4568",
    "type": "private",
    "lat": 38.596481,
    "lng": -121.430183,
    "distance": 3.6175179463810876
  },
  {
    "name": "Elica Health Center- Franklin",
    "address": "5385 Franklin Blvd, Sacramento, CA 95820",
    "phone": "(916) 454-2345",
    "type": "VFA",
    "lat": 38.526272,
    "lng": -121.471512,
    "distance": 4.018119949887131
  },
  {
    "name": "Peach Tree N Sacramento",
    "address": "3810 Rosin Ct, Ste 100, Sacramento, CA 95834",
    "phone": "(916) 779-7656",
    "type": "fqhc",
    "lat": 38.637749,
    "lng": -121.474716,
    "distance": 4.022678820507895
  },
  {
    "name": "One Community Health Arden",
    "address": "1442 Ethan Way Ste 100, Sacramento, CA 95825",
    "phone": "(916) 443-3299",
    "type": "VFA",
    "lat": 38.591808,
    "lng": -121.419922,
    "distance": 4.084026226179304
  },
  {
    "name": "Elica Health Centers Cadillac",
    "address": "77 Cadillac Dr Ste 200, Sacramento, CA 95825",
    "phone": "(916) 454-2345",
    "type": "fqhc",
    "lat": 38.572502,
    "lng": -121.418236,
    "distance": 4.162021727201056
  },
  {
    "name": "Palatnik Medical Corp",
    "address": "701 Howe Ave, Ste D38, Sacramento, CA 95825",
    "phone": "(916) 518-0888",
    "type": "private",
    "lat": 38.578735,
    "lng": -121.415939,
    "distance": 4.2427587072265736
  },
  {
    "name": "Pediatric Med Asso Of Sacto Inc",
    "address": "650 Howe Ave, Ste 100, Sacramento, CA 95825",
    "phone": "(916) 924-9337",
    "type": "private",
    "lat": 38.577271,
    "lng": -121.414589,
    "distance": 4.3214934064020865
  },
  {
    "name": "Pediatrics On Scripps Drive",
    "address": "1 Scripps Dr, Ste 107, Sacramento, CA 95825",
    "phone": "(916) 929-3456",
    "type": "private",
    "lat": 38.5732,
    "lng": -121.411797,
    "distance": 4.49967613344495
  },
  {
    "name": "Elica Health Centers - Marysville",
    "address": "3234 Marysville Blvd, Sacramento, CA 95815",
    "phone": "(916) 454-2345",
    "type": "fqhc",
    "lat": 38.626362,
    "lng": -121.432213,
    "distance": 4.565344758026578
  },
  {
    "name": "San Lucas Pediatric Clinic",
    "address": "4100 E Commerce Way, Ste 100, Sacramento, CA 95834",
    "phone": "(916) 575-9090",
    "type": "public",
    "lat": 38.644878,
    "lng": -121.51915,
    "distance": 4.572019095869133
  },
  {
    "name": "Sacramento Nativeamerican Hc So Ave",
    "address": "1221 South Ave, Sacramento, CA 95838",
    "phone": "(916) 341-0575",
    "type": "fqhc",
    "lat": 38.633068,
    "lng": -121.437973,
    "distance": 4.682998477178118
  },
  {
    "name": "Wellspace Health",
    "address": "3441 Marysville Blvd, Sacramento, CA 95838",
    "phone": "(916) 313-8427",
    "type": "private",
    "lat": 38.631222,
    "lng": -121.431511,
    "distance": 4.825724127452209
  },
  {
    "name": "Elica Health Centers-arden Arcade",
    "address": "2400 Glendale Ln, Sacramento, CA 95825",
    "phone": "(916) 454-2345",
    "type": "fqhc",
    "lat": 38.59734,
    "lng": -121.405327,
    "distance": 4.932162629948171
  },
  {
    "name": "Wellspace Health Arden Arcade Com",
    "address": "2433 Marconi Ave, Sacramento, CA 95821",
    "phone": "(916) 822-8970",
    "type": "fqhc",
    "lat": 38.619202,
    "lng": -121.404617,
    "distance": 5.500635780753335
  },
  {
    "name": "Doris Say Md",
    "address": "1355 Florin Rd, Ste 16, Sacramento, CA 95822",
    "phone": "(916) 424-9446",
    "type": "private",
    "lat": 38.496349,
    "lng": -121.504501,
    "distance": 5.915860476639852
  },
  {
    "name": "Pira Rochanayon",
    "address": "3811 Florin Rd, Ste 23, Sacramento, CA 95823",
    "phone": "(916) 399-1171",
    "type": "private",
    "lat": 38.497181,
    "lng": -121.46209,
    "distance": 6.088936951021138
  },
  {
    "name": "Dr Jack Lamendola",
    "address": "7248 S Land Park Dr, Ste 113, Sacramento, CA 95831",
    "phone": "(916) 395-5226",
    "type": "private",
    "lat": 38.494541,
    "lng": -121.513771,
    "distance": 6.105983208925334
  },
  {
    "name": "River Bend Medical Associates",
    "address": "7248 S Land Park Dr, Ste 205, Sacramento, CA 95831",
    "phone": "(916) 392-3186",
    "type": "private",
    "lat": 38.494541,
    "lng": -121.513771,
    "distance": 6.105983208925334
  },
  {
    "name": "Naomi Sato, Md",
    "address": "900 Florin Rd, Ste B, Sacramento, CA 95831",
    "phone": "(916) 421-8245",
    "type": "private",
    "lat": 38.496445,
    "lng": -121.526627,
    "distance": 6.136403738216365
  },
  {
    "name": "Wellspace Health Florin",
    "address": "4241 Florin Rd, Ste 40, Sacramento, CA 95823",
    "phone": "(916) 737-5555",
    "type": "private",
    "lat": 38.49675,
    "lng": -121.458138,
    "distance": 6.181840977628421
  },
  {
    "name": "Sacramentonative American Hc Florin",
    "address": "3800 Florin Rd, Sacramento, CA 95823",
    "phone": "(916) 341-0575",
    "type": "fqhc",
    "lat": 38.495041,
    "lng": -121.46386,
    "distance": 6.204616094351499
  },
  {
    "name": "South Area Pediatric Med Grp Inc",
    "address": "4760 Florin Rd, Ste D, Sacramento, CA 95823",
    "phone": "(916) 394-2580",
    "type": "private",
    "lat": 38.495255,
    "lng": -121.450012,
    "distance": 6.430531772935701
  },
  {
    "name": "Duong",
    "address": "7260 E Southgate Dr, Ste D, Sacramento, CA 95823",
    "phone": "(916) 428-8134",
    "type": "private",
    "lat": 38.493969,
    "lng": -121.438377,
    "distance": 6.769961069643611
  },
  {
    "name": "Walton Pediatrics Medical Associate",
    "address": "7237 E Southgate Dr, Ste A, Sacramento, CA 95823",
    "phone": "(916) 422-6635",
    "type": "private",
    "lat": 38.49477,
    "lng": -121.435654,
    "distance": 6.788087752358999
  },
  {
    "name": "Sacramento Community Clinic",
    "address": "5524 Assembly Ct, Sacramento, CA 95823",
    "phone": "(916) 642-1867",
    "type": "fqhc",
    "lat": 38.49324,
    "lng": -121.439262,
    "distance": 6.7939167761883
  },
  {
    "name": "Niazi Family Medicine",
    "address": "7275 E Southgate Dr, Ste 102, Sacramento, CA 95823",
    "phone": "(916) 244-4464",
    "type": "private",
    "lat": 38.493404,
    "lng": -121.436264,
    "distance": 6.856467936271182
  },
  {
    "name": "Eastern Medical Center",
    "address": "2930 Eastern Ave, Sacramento, CA 95821",
    "phone": "(916) 972-8966",
    "type": "public",
    "lat": 38.618698,
    "lng": -121.364067,
    "distance": 7.091919160005495
  },
  {
    "name": "Ehc Health On Wheels 1",
    "address": "8130 Berry Ave, Ste 150, Sacramento, CA 95828",
    "phone": "(916) 454-2345",
    "type": "fqhc",
    "lat": 38.5051,
    "lng": -121.406319,
    "distance": 5.101815419716321
  },
  {
    "name": "Elica Health Center-mack Road",
    "address": "6339 Mack Rd, Sacramento, CA 95823",
    "phone": "(916) 454-2345",
    "type": "fqhc",
    "lat": 38.475376,
    "lng": -121.428665,
    "distance": 5.2656783179335145
  },
  {
    "name": "Kaiser Permanente, South Sacramento",
    "address": "6600 Bruceville Rd, Sacramento, CA 95823",
    "phone": "(916) 627-7327",
    "type": "private",
    "lat": 38.470196,
    "lng": -121.422333,
    "distance": 5.761017108371857
  },
  {
    "name": "Mercy Family Health Center",
    "address": "7601 Hospital Dr, Ste 103, Sacramento, CA 95823",
    "phone": "(916) 681-1600",
    "type": "private",
    "lat": 38.466335,
    "lng": -121.417084,
    "distance": 6.149624422264586
  },
  {
    "name": "Sacramento Valley Pediatric",
    "address": "7501 Hospital Dr, Ste 203, Sacramento, CA 95823",
    "phone": "(916) 681-1130",
    "type": "private",
    "lat": 38.464771,
    "lng": -121.416908,
    "distance": 6.235711379791267
  },
  {
    "name": "Sacramento Pediatrics",
    "address": "7601 Hospital Dr Ste 100a, Sacramento, CA 95823",
    "phone": "(916) 682-7841",
    "type": "public",
    "lat": 38.464874,
    "lng": -121.415565,
    "distance": 6.2795108347564925
  },
  {
    "name": "Angelo J Nazareno Timberlake Pedi",
    "address": "8118 Timberlake Way, Ste 230, Sacramento, CA 95823",
    "phone": "(916) 688-5040",
    "type": "private",
    "lat": 38.4627,
    "lng": -121.414162,
    "distance": 6.441573194012804
  },
  {
    "name": "Tetteh Pediatric Health",
    "address": "8120 Timberlake Way, Ste 207, Sacramento, CA 95823",
    "phone": "(916) 538-6118",
    "type": "private",
    "lat": 38.462032,
    "lng": -121.414459,
    "distance": 6.464982197941949
  },
  {
    "name": "Health Life Org Sac Comm Clinic",
    "address": "3030 Explorer Dr, Sacramento, CA 95827",
    "phone": "(916) 642-1867",
    "type": "fqhc",
    "lat": 38.563412,
    "lng": -121.332474,
    "distance": 6.175692660821202
  },
  {
    "name": "Juvenile Medical Services",
    "address": "9601 Kiefer Blvd, Sacramento, CA 95827",
    "phone": "(916) 875-5015",
    "type": "public",
    "lat": 38.544636,
    "lng": -121.33905,
    "distance": 8.27549435418354
  },
  {
    "name": "Wellspace Health Rancho Cordova",
    "address": "10423 Old Placerville Rd, Ste A, Sacramento, CA 95827",
    "phone": "(916) 737-5555",
    "type": "VFA",
    "lat": 38.570477,
    "lng": -121.307526,
    "distance": 8.512852846353152
  },
  {
    "name": "Snar, Inc",
    "address": "8191 Timberlake Way, Ste 400, Sacramento, CA 95823",
    "phone": "(916) 688-8888",
    "type": "private",
    "lat": 38.460194,
    "lng": -121.413139,
    "distance": 5.215593421674613
  },
  {
    "name": "Wellspace Health South Valley",
    "address": "8233 E Stockton Blvd, Ste D, Sacramento, CA 95828",
    "phone": "(916) 737-5555",
    "type": "fqhc",
    "lat": 38.45966,
    "lng": -121.409813,
    "distance": 5.311171648041773
  }
]