[
  {
    "name": "Iris Castaneda - Van Wyk",
    "address": "1532 Anacapa St, Ste 1, Santa Barbara, CA 93101",
    "phone": "(805) 892-4141",
    "type": "private",
    "lat": 34.428181,
    "lng": -119.708023,
    "distance": 0.7573348392067991
  },
  {
    "name": "Eastside Neighborhood Clinic",
    "address": "915 N Milpas St, Santa Barbara, CA 93103",
    "phone": "(805) 324-8333",
    "type": "VFA",
    "lat": 34.430199,
    "lng": -119.691048,
    "distance": 0.7667692950564103
  },
  {
    "name": "Childrens Medical Clinic",
    "address": "15 E Arrellaga St, Ste 1, Santa Barbara, CA 93101",
    "phone": "(805) 965-1095",
    "type": "private",
    "lat": 34.427341,
    "lng": -119.709511,
    "distance": 0.7873481637350122
  },
  {
    "name": "Augusto J Castaneda Md",
    "address": "533 E Micheltorena St, Ste 102, Santa Barbara, CA 93103",
    "phone": "(805) 963-4959",
    "type": "private",
    "lat": 34.432411,
    "lng": -119.701874,
    "distance": 0.829178698600033
  },
  {
    "name": "Westside Neighborhood  Clinic",
    "address": "628 W Micheltorena St, Santa Barbara, CA 93101",
    "phone": "(805) 963-1546",
    "type": "VFA",
    "lat": 34.419209,
    "lng": -119.716003,
    "distance": 1.0207306397295042
  },
  {
    "name": "Franklin Health Care Center",
    "address": "1136 E Montecito St, Santa Barbara, CA 93103",
    "phone": "(805) 568-2099",
    "type": "public",
    "lat": 34.426823,
    "lng": -119.68,
    "distance": 1.117692259559625
  },
  {
    "name": "Santa Barbara Cottage Hospital",
    "address": "400 W Pueblo St, Santa Barbara, CA 93105",
    "phone": "8055698378",
    "type": "private",
    "lat": 34.42947,
    "lng": -119.724167,
    "distance": 1.5966643309032695
  },
  {
    "name": "James Brewer",
    "address": "2421 Bath St, Ste A, Santa Barbara, CA 93105",
    "phone": "(805) 563-0167",
    "type": "private",
    "lat": 34.431709,
    "lng": -119.724251,
    "distance": 1.6651681868382455
  },
  {
    "name": "Sansum Medical Clinic",
    "address": "51 Hitchcock Way, Santa Barbara, CA 93105",
    "phone": "(805) 563-6211",
    "type": "private",
    "lat": 34.438309,
    "lng": -119.744041,
    "distance": 2.879163792015534
  },
  {
    "name": "American Indian Health And Services",
    "address": "4141 State St, Ste A1, Santa Barbara, CA 93110",
    "phone": "(805) 681-7356",
    "type": "public",
    "lat": 34.4398,
    "lng": -119.761627,
    "distance": 3.84591229068005
  },
  {
    "name": "Goleta Neighborhood Clinic",
    "address": "5580 Calle Real, Goleta, CA 93111",
    "phone": "(805) 617-7986",
    "type": "VFA",
    "lat": 34.441311,
    "lng": -119.818382,
    "distance": 6.994537577892699
  },
  {
    "name": "Goleta Eastside Mobile Unit",
    "address": "5580 Calle Real, Santa Barbara, CA 93111",
    "phone": "(805) 451-9665",
    "type": "private",
    "lat": 34.441422,
    "lng": -119.818726,
    "distance": 7.015243693378105
  },
  {
    "name": "Isla Vista Neighborhood Clinic",
    "address": "970 Embarcadero Del Mar, Goleta, CA 93117",
    "phone": "(805) 690-6527",
    "type": "VFA",
    "lat": 34.411678,
    "lng": -119.856392,
    "distance": 9.039299853497326
  },
  {
    "name": "Carpinteria Health Care Center",
    "address": "931 Walnut Ave, Carpinteria, CA 93013",
    "phone": "(805) 560-1050",
    "type": "fqhc",
    "lat": 34.396904,
    "lng": -119.517113,
    "distance": 10.454510925437628
  },
  {
    "name": "Centers For Family Health",
    "address": "655 Ventura Ave, Oak View, CA 93022",
    "phone": "(805) 649-3750",
    "type": "fqhc",
    "lat": 34.396519,
    "lng": -119.300003,
    "distance": 22.762095621625768
  },
  {
    "name": "Cmh Center For Family Health",
    "address": "138 W Main St, Ste E, Ventura, CA 93001",
    "phone": "(805) 667-2850",
    "type": "private",
    "lat": 34.281254,
    "lng": -119.302727,
    "distance": 24.534595255094356
  },
  {
    "name": "West Ventura Medical Clinic",
    "address": "133 W Santa Clara St, Ventura, CA 93001",
    "phone": "(805) 641-5600",
    "type": "VFA",
    "lat": 34.280048,
    "lng": -119.303108,
    "distance": 24.54761597099222
  },
  {
    "name": "Ojai Valley Community Health Care",
    "address": "1200 Maricopa Hwy, Ojai, CA 93023",
    "phone": "(805) 640-8293",
    "type": "VFA",
    "lat": 34.442669,
    "lng": -119.262993,
    "distance": 24.849171435206742
  },
  {
    "name": "Santa Ynez Tribal Health Clinic",
    "address": "90 Via Juana Rd, Santa Ynez, CA 93460",
    "phone": "(805) 688-7070",
    "type": "public",
    "lat": 34.605217,
    "lng": -120.093285,
    "distance": 25.853141844487528
  },
  {
    "name": "Midtown Medical Group",
    "address": "2721 E Main St, Ventura, CA 93003",
    "phone": "(805) 948-2841",
    "type": "private",
    "lat": 34.273724,
    "lng": -119.259865,
    "distance": 26.99281501780946
  },
  {
    "name": "Academic Family Medicine Center",
    "address": "300 Hillmont Ave Bldg 340, Ventura, CA 93003",
    "phone": "(805) 652-6100",
    "type": "public",
    "lat": 34.277004,
    "lng": -119.253853,
    "distance": 27.226861365684805
  },
  {
    "name": "Pediatric Diagnostic Center",
    "address": "300 Hillmont Ave Bldg 340, Ventura, CA 93003",
    "phone": "(805) 652-6255",
    "type": "fqhc",
    "lat": 34.277004,
    "lng": -119.253853,
    "distance": 27.226861365684805
  },
  {
    "name": "Ventura County Medical Center",
    "address": "300 Hillmont Ave, Ventura, CA 93003",
    "phone": "(805) 652-6220",
    "type": "public",
    "lat": 34.277191,
    "lng": -119.252998,
    "distance": 27.26752314847899
  },
  {
    "name": "Cmh Center For Family Health",
    "address": "120 N Ashwood Ave, Ventura, CA 93003",
    "phone": "(805) 658-5800",
    "type": "private",
    "lat": 34.276035,
    "lng": -119.239464,
    "distance": 28.016693128124107
  },
  {
    "name": "Mmg Pediatric Specialty",
    "address": "3655 W 5th St, Oxnard, CA 93030",
    "phone": "(805) 948-4442",
    "type": "public",
    "lat": 34.198231,
    "lng": -119.219482,
    "distance": 31.353529806749766
  },
  {
    "name": "Cmh Center For Fam Hlth-airport Mar",
    "address": "3641 W 5th St, Oxnard, CA 93030",
    "phone": "(805) 985-5505",
    "type": "private",
    "lat": 34.197659,
    "lng": -119.218216,
    "distance": 31.435995534435325
  },
  {
    "name": "Buellton Medical Center",
    "address": "195 W Highway 246, Buellton, CA 93427",
    "phone": "(805) 686-8555",
    "type": "private",
    "lat": 34.615108,
    "lng": -120.197617,
    "distance": 31.44373286677493
  },
  {
    "name": "Dignity Health Medical Group",
    "address": "2901 N Ventura Rd Ste 100, Oxnard, CA 93036",
    "phone": "(805) 981-6101",
    "type": "private",
    "lat": 34.244751,
    "lng": -119.181938,
    "distance": 31.870267966900503
  },
  {
    "name": "Clinicas Del Camino Real-ventura",
    "address": "200 S Wells Rd, Ste 100, Ventura, CA 93004",
    "phone": "(805) 647-6322",
    "type": "VFA",
    "lat": 34.293571,
    "lng": -119.159073,
    "distance": 31.984976505416114
  },
  {
    "name": "Clinic Del Camino Real - Krb",
    "address": "1100 W Gonzales Rd, Oxnard, CA 93036",
    "phone": "(805) 988-0053",
    "type": "VFA",
    "lat": 34.218872,
    "lng": -119.19075,
    "distance": 32.14505732167664
  },
  {
    "name": "La Paz Rx",
    "address": "2355 N Oxnard Blvd, Oxnard, CA 93036",
    "phone": "8054851991",
    "type": "private",
    "lat": 34.227371,
    "lng": -119.179131,
    "distance": 32.496432630757816
  },
  {
    "name": "Rose Avenue  Family Medical Group",
    "address": "451 W Gonzales Rd, Ste 230, Oxnard, CA 93036",
    "phone": "(805) 988-1443",
    "type": "private",
    "lat": 34.219582,
    "lng": -119.181709,
    "distance": 32.58956980610383
  },
  {
    "name": "Cmh-center For Family Health",
    "address": "2361 E Vineyard Ave, Oxnard, CA 93036",
    "phone": "(805) 981-3770",
    "type": "private",
    "lat": 34.228947,
    "lng": -119.175629,
    "distance": 32.63405827559865
  },
  {
    "name": "Clinicas Del Camino Real Inc-el Rio",
    "address": "221 E Ventura Blvd, Ste 126, Oxnard, CA 93036",
    "phone": "(805) 436-3444",
    "type": "VFA",
    "lat": 34.231064,
    "lng": -119.1707,
    "distance": 32.83221661357693
  },
  {
    "name": "Kasemsant Hansuvadha",
    "address": "963 W 7th St, Oxnard, CA 93030",
    "phone": "(805) 487-9897",
    "type": "private",
    "lat": 34.19593,
    "lng": -119.188889,
    "distance": 32.96131394963663
  },
  {
    "name": "Wellpath",
    "address": "4333 E Vineyard Ave, Oxnard, CA 93036",
    "phone": "(805) 981-5626",
    "type": "private",
    "lat": 34.254925,
    "lng": -119.155861,
    "distance": 32.997951360535474
  },
  {
    "name": "Clinicas Del Camino Real La Colonia",
    "address": "801 Cooper Rd, Oxnard, CA 93030",
    "phone": "(805) 330-8100",
    "type": "fqhc",
    "lat": 34.204769,
    "lng": -119.170372,
    "distance": 33.62003688456195
  },
  {
    "name": "Clinicas Del Camino Real Inc- Oxnar",
    "address": "650 Meta St, Oxnard, CA 93030",
    "phone": "(805) 487-5351",
    "type": "VFA",
    "lat": 34.195332,
    "lng": -119.175568,
    "distance": 33.6529771294149
  },
  {
    "name": "Buena Medical Clinic",
    "address": "905 S A St, Ste 1, Oxnard, CA 93030",
    "phone": "(805) 487-9150",
    "type": "private",
    "lat": 34.192013,
    "lng": -119.177559,
    "distance": 33.65988765748501
  },
  {
    "name": "Ventura Co Public Health So Oxnard",
    "address": "2500 S C St, Ste B-1, Oxnard, CA 93033",
    "phone": "(805) 981-5221",
    "type": "public",
    "lat": 34.176701,
    "lng": -119.181259,
    "distance": 33.988387054895504
  },
  {
    "name": "Las Islas Fam Med Grp, Inc",
    "address": "2400 South C Street, Oxnard, CA 93033",
    "phone": "(805) 240-7000",
    "type": "VFA",
    "lat": 34.177021,
    "lng": -119.180946,
    "distance": 33.992864125713076
  },
  {
    "name": "Cmh Center For Family Health",
    "address": "2921 Saviers Rd, Oxnard, CA 93033",
    "phone": "(805) 487-5588",
    "type": "private",
    "lat": 34.172722,
    "lng": -119.178169,
    "distance": 34.278884283892474
  },
  {
    "name": "Cmh Centers For Family Health",
    "address": "321 E Port Hueneme Rd, Port Hueneme, CA 93041",
    "phone": "(805) 652-4267",
    "type": "private",
    "lat": 34.147797,
    "lng": -119.196541,
    "distance": 34.29480106174589
  },
  {
    "name": "Mandalay Bay Women And Children's",
    "address": "2000 Outlet Center Dr, Ste 110, Oxnard, CA 93036",
    "phone": "(805) 604-4588",
    "type": "fqhc",
    "lat": 34.221619,
    "lng": -119.147461,
    "distance": 34.31030398304185
  },
  {
    "name": "Ventura County Public Hlthnoxnard",
    "address": "2240 E Gonzales Rd, Ste 140, Oxnard, CA 93036",
    "phone": "(805) 981-5221",
    "type": "public",
    "lat": 34.218002,
    "lng": -119.146919,
    "distance": 34.44015336184146
  },
  {
    "name": "Magnolia Health Care Clinic",
    "address": "2240 E Gonzales Rd Ste 100, Oxnard, CA 93036",
    "phone": "(805) 981-5161",
    "type": "fqhc",
    "lat": 34.217979,
    "lng": -119.146881,
    "distance": 34.442789382806666
  },
  {
    "name": "Clinicas Del Camino Real -rsj",
    "address": "2100 Statham Blvd, Oxnard, CA 93033",
    "phone": "(805) 330-8680",
    "type": "fqhc",
    "lat": 34.178936,
    "lng": -119.164902,
    "distance": 34.72715328172669
  },
  {
    "name": "Maravilla Community Hlth Ctr",
    "address": "450 W Clara St, Oxnard, CA 93033",
    "phone": "(805) 488-0210",
    "type": "VFA",
    "lat": 34.151161,
    "lng": -119.182274,
    "distance": 34.85257986583194
  },
  {
    "name": "Santa Paula West",
    "address": "254 W Harvard Blvd, Ste B, Santa Paula, CA 93060",
    "phone": "(805) 229-0200",
    "type": "fqhc",
    "lat": 34.345177,
    "lng": -119.075523,
    "distance": 35.89046063157815
  },
  {
    "name": "Clinicas Del Camino Real-oceanview",
    "address": "4400 Olds Rd, Oxnard, CA 93033",
    "phone": "(805) 986-5551",
    "type": "VFA",
    "lat": 34.160275,
    "lng": -119.14875,
    "distance": 36.16539594851686
  },
  {
    "name": "Chc Cuyama",
    "address": "4711 Highway 166, New Cuyama, CA 93254",
    "phone": "(805) 931-2669",
    "type": "VFA",
    "lat": 34.945969,
    "lng": -119.683502,
    "distance": 32.843617291190924
  },
  {
    "name": "Santa Paula Hospital Clinic",
    "address": "845 N 10th St, Ste 3, Santa Paula, CA 93060",
    "phone": "(805) 525-0215",
    "type": "fqhc",
    "lat": 34.365898,
    "lng": -119.065598,
    "distance": 36.780125713734456
  },
  {
    "name": "Clinicas Del Camino Real Inc-santa",
    "address": "500 E Main St, Santa Paula, CA 93060",
    "phone": "(805) 933-0895",
    "type": "VFA",
    "lat": 34.350979,
    "lng": -119.068443,
    "distance": 33.409566284039755
  },
  {
    "name": "Community Health Centers Los Alamos",
    "address": "490 Bell St, Unit 103, Los Alamos, CA 93440",
    "phone": "(805) 931-2669",
    "type": "fqhc",
    "lat": 34.74382,
    "lng": -120.278061,
    "distance": 37.5070894883537
  },
  {
    "name": "Ventura County Med - Santa Paula",
    "address": "825 N 10th St, Rm 152, Santa Paula, CA 93060",
    "phone": "(805) 933-8636",
    "type": "public",
    "lat": 34.365799,
    "lng": -119.065407,
    "distance": 34.00273494269388
  }
]