[
  {
    "name": "Tehama County Medical Outpatient Cl",
    "address": "1850 Walnut St, Ste E, Red Bluff, CA 96080",
    "phone": "(530) 527-0350",
    "type": "fqhc",
    "lat": 40.16906,
    "lng": -122.254234,
    "distance": 1.1716463879367025
  },
  {
    "name": "Tehama Co Public Hlth Department",
    "address": "1860 Walnut St, Bldg C, Red Bluff, CA 96080",
    "phone": "(530) 527-6824",
    "type": "public",
    "lat": 40.168972,
    "lng": -122.254395,
    "distance": 1.1820489402285665
  },
  {
    "name": "Greenville Rancheria Tribal Hlth",
    "address": "1425 Montgomery Rd, Red Bluff, CA 96080",
    "phone": "(530) 528-8600",
    "type": "public",
    "lat": 40.157806,
    "lng": -122.225571,
    "distance": 1.5284900165702644
  },
  {
    "name": "Lassen Medical Clinic-red Bluff",
    "address": "2450 Sister Mary Columba Dr, Red Bluff, CA 96080",
    "phone": "(530) 527-0414",
    "type": "private",
    "lat": 40.149448,
    "lng": -122.222038,
    "distance": 2.1348778257438257
  },
  {
    "name": "Rolling Hills Clinic",
    "address": "2526 Sister Mary Columba Dr, Red Bluff, CA 96080",
    "phone": "(530) 690-2778",
    "type": "public",
    "lat": 40.149544,
    "lng": -122.219521,
    "distance": 2.177655335010865
  },
  {
    "name": "Ampla Health Los Molinos",
    "address": "7981 State Highway 99e, Los Molinos, CA 96055",
    "phone": "(530) 384-4010",
    "type": "fqhc",
    "lat": 40.027672,
    "lng": -122.100754,
    "distance": 12.631633666425325
  },
  {
    "name": "Lassen Medical Clinic Cottonwood",
    "address": "20833 Long Branch Dr, Cottonwood, CA 96022",
    "phone": "(530) 347-3418",
    "type": "private",
    "lat": 40.393631,
    "lng": -122.280167,
    "distance": 15.047853588806289
  },
  {
    "name": "Dignity Health Solano Street",
    "address": "2126 Solano St, Corning, CA 96021",
    "phone": "(530) 824-4002",
    "type": "fqhc",
    "lat": 39.928379,
    "lng": -122.195839,
    "distance": 17.411509077087235
  },
  {
    "name": "Rolling Hills Clinic",
    "address": "706 Peach St, Corning, CA 96021",
    "phone": "(530) 690-2827",
    "type": "public",
    "lat": 39.928711,
    "lng": -122.174759,
    "distance": 17.559169672437772
  },
  {
    "name": "James Ooi Md",
    "address": "320 Solano St, Corning, CA 96021",
    "phone": "(530) 824-3283",
    "type": "private",
    "lat": 39.928169,
    "lng": -122.169884,
    "distance": 17.64509515710273
  },
  {
    "name": "Corning Rural Health Clinic",
    "address": "155 Solano St, Corning, CA 96021",
    "phone": "(530) 824-4663",
    "type": "fqhc",
    "lat": 39.927807,
    "lng": -122.1688,
    "distance": 17.681039687330774
  },
  {
    "name": "Tehama County Health Department",
    "address": "275 Solano St, Corning, CA 96021",
    "phone": "(530) 824-4890",
    "type": "public",
    "lat": 39.927311,
    "lng": -122.168869,
    "distance": 17.713888420746848
  },
  {
    "name": "Andersonrx",
    "address": "2940 East St, Anderson, CA 96007",
    "phone": "(530) 378-5566",
    "type": "private",
    "lat": 40.450863,
    "lng": -122.298294,
    "distance": 19.105479727658228
  },
  {
    "name": "Anderson Family Health Center",
    "address": "2965 East St, Anderson, CA 96007",
    "phone": "(530) 246-5833",
    "type": "fqhc",
    "lat": 40.451839,
    "lng": -122.298248,
    "distance": 19.171533579573737
  },
  {
    "name": "Shasta Countyhhsapublic Health Br",
    "address": "2650 Breslauer Way, Redding, CA 96001",
    "phone": "(530) 229-8463",
    "type": "public",
    "lat": 40.550838,
    "lng": -122.378349,
    "distance": 26.79995419332083
  },
  {
    "name": "Schc Enterprise",
    "address": "3270 Churn Creek Rd, Redding, CA 96002",
    "phone": "(530) 229-5114",
    "type": "fqhc",
    "lat": 40.56002,
    "lng": -122.353546,
    "distance": 27.081095539509853
  },
  {
    "name": "Churn Creek Healthcare",
    "address": "3184 Churn Creek Rd, Redding, CA 96002",
    "phone": "(530) 768-2436",
    "type": "public",
    "lat": 40.56142,
    "lng": -122.353737,
    "distance": 27.177549909508432
  },
  {
    "name": "Shingletown Medical Center Inc",
    "address": "31292 Alpine Meadows Rd, Shingletown, CA 96088",
    "phone": "(530) 474-3390",
    "type": "fqhc",
    "lat": 40.491669,
    "lng": -121.88546,
    "distance": 28.43867939248769
  },
  {
    "name": "Mercy Family Health Center",
    "address": "2480 Sonoma St, Redding, CA 96001",
    "phone": "(530) 225-7836",
    "type": "public",
    "lat": 40.5737,
    "lng": -122.404091,
    "distance": 28.708314928739576
  },
  {
    "name": "Schc Peds",
    "address": "1035 Placer St, Redding, CA 96001",
    "phone": "(530) 646-3959",
    "type": "fqhc",
    "lat": 40.582821,
    "lng": -122.385391,
    "distance": 29.02594621322241
  },
  {
    "name": "Schc Urgent Care",
    "address": "1035 Placer St, Redding, CA 96001",
    "phone": "(530) 646-3959",
    "type": "fqhc",
    "lat": 40.582821,
    "lng": -122.385391,
    "distance": 29.02594621322241
  },
  {
    "name": "Schc Residency",
    "address": "1035 Placer St, Redding, CA 96001",
    "phone": "(530) 646-3959",
    "type": "fqhc",
    "lat": 40.582821,
    "lng": -122.385391,
    "distance": 29.02594621322241
  },
  {
    "name": "Schc Family Practice",
    "address": "1035 Placer St, Redding, CA 96001",
    "phone": "(530) 646-3959",
    "type": "fqhc",
    "lat": 40.582821,
    "lng": -122.385391,
    "distance": 29.02594621322241
  },
  {
    "name": "Schc Fellowship",
    "address": "1035 Placer St, Redding, CA 96001",
    "phone": "(530) 646-3959",
    "type": "fqhc",
    "lat": 40.582821,
    "lng": -122.385391,
    "distance": 29.02594621322241
  },
  {
    "name": "Redding Rancheria Tribal Health",
    "address": "1441 Liberty St, Redding, CA 96001",
    "phone": "(530) 226-1726",
    "type": "public",
    "lat": 40.585911,
    "lng": -122.386597,
    "distance": 29.24860774193718
  },
  {
    "name": "Orland Childrens Center",
    "address": "116 E Walker St, Orland, CA 95963",
    "phone": "(530) 865-5400",
    "type": "public",
    "lat": 39.746971,
    "lng": -122.18412,
    "distance": 29.942953950576328
  },
  {
    "name": "Northern Valley Indian Health, Inc",
    "address": "845 W East Ave, Chico, CA 95926",
    "phone": "(530) 896-9400",
    "type": "public",
    "lat": 39.747299,
    "lng": -121.876457,
    "distance": 35.35408355495382
  },
  {
    "name": "Shasta Lake Family Health Center",
    "address": "4215 Front St, Shasta Lake, CA 96019",
    "phone": "(530) 646-3959",
    "type": "fqhc",
    "lat": 40.681114,
    "lng": -122.370369,
    "distance": 35.44332627036246
  },
  {
    "name": "Ampla Health Family Dental Medical",
    "address": "285 Cohasset Rd, Chico, CA 95926",
    "phone": "(530) 342-6065",
    "type": "fqhc",
    "lat": 39.751122,
    "lng": -121.850922,
    "distance": 35.882051351539545
  },
  {
    "name": "Ampla Health Chico Med  Ped",
    "address": "680 Cohasset Rd, Chico, CA 95926",
    "phone": "(530) 342-4395",
    "type": "fqhc",
    "lat": 39.752811,
    "lng": -121.846161,
    "distance": 35.930065565282575
  },
  {
    "name": "Enloe Medical Center Pharmacy",
    "address": "1531 Esplanade, Chico, CA 95926",
    "phone": "(530) 332-7709",
    "type": "private",
    "lat": 39.742149,
    "lng": -121.849861,
    "distance": 36.42620892948075
  },
  {
    "name": "Butte County Phd, Chico Clinic",
    "address": "695 Oleander Ave, Chico, CA 95926",
    "phone": "(530) 552-3959",
    "type": "public",
    "lat": 39.734909,
    "lng": -121.841827,
    "distance": 37.079750323506154
  },
  {
    "name": "Nvih- Children Health Center",
    "address": "1515 Springfield Dr Ste 175, Chico, CA 95928",
    "phone": "(530) 781-1440",
    "type": "public",
    "lat": 39.73045,
    "lng": -121.810379,
    "distance": 38.29116053297823
  },
  {
    "name": "Nvih- Meriam Park",
    "address": "1990 Concord Ave, Chico, CA 95928",
    "phone": "(530) 809-3300",
    "type": "public",
    "lat": 39.72797,
    "lng": -121.792068,
    "distance": 39.00664950218364
  },
  {
    "name": "Feather River Hospital Health Ctr",
    "address": "5125 Skyway, Ste H, Paradise, CA 95969",
    "phone": "(530) 876-2000",
    "type": "fqhc",
    "lat": 39.746479,
    "lng": -121.639389,
    "distance": 43.46037288174695
  },
  {
    "name": "Willows Pediatrics",
    "address": "263 N Villa Ave, Willows, CA 95988",
    "phone": "(530) 934-8700",
    "type": "public",
    "lat": 39.52264,
    "lng": -122.209877,
    "distance": 45.339184785509744
  },
  {
    "name": "Glenn County Hhsa",
    "address": "240 N Villa Ave, Willows, CA 95988",
    "phone": "(530) 934-6588",
    "type": "public",
    "lat": 39.522305,
    "lng": -122.208817,
    "distance": 45.364110010440385
  },
  {
    "name": "Northern Valley Indian Health",
    "address": "207 N Butte St, Willows, CA 95988",
    "phone": "(530) 934-4641",
    "type": "public",
    "lat": 39.522129,
    "lng": -122.195778,
    "distance": 45.40331053155018
  },
  {
    "name": "Redding Rancheria Trinity Healthctr",
    "address": "81 Arbuckle Court, Weaverville, CA 96093",
    "phone": "(530) 623-0021",
    "type": "public",
    "lat": 40.711479,
    "lng": -122.926498,
    "distance": 51.72443236605836
  },
  {
    "name": "Trinity Community Health Clinic",
    "address": "31 Easter Avenue, Weaverville, CA 96093",
    "phone": "(530) 623-4186",
    "type": "fqhc",
    "lat": 40.737389,
    "lng": -122.939941,
    "distance": 53.49581150290339
  },
  {
    "name": "Hayfork Community Hlth Clinic",
    "address": "6961 Highway 3, Hayfork, CA 96041",
    "phone": "(530) 628-5517",
    "type": "fqhc",
    "lat": 40.554211,
    "lng": -123.18605,
    "distance": 56.36191493280108
  },
  {
    "name": "Pit River Health Services",
    "address": "36977 Park Ave, Burney, CA 96013",
    "phone": "(530) 335-3651",
    "type": "public",
    "lat": 40.873371,
    "lng": -121.673599,
    "distance": 56.36659532083374
  },
  {
    "name": "Mtn Valleys Hlth Ctrburney Hlth",
    "address": "37491 Enterprise Dr, Burney, CA 96013",
    "phone": "(530) 999-9030",
    "type": "fqhc",
    "lat": 40.8876,
    "lng": -121.652519,
    "distance": 57.78389306794062
  },
  {
    "name": "Mayers Rural Health Center",
    "address": "20641 Commerce Way, Burney, CA 96013",
    "phone": "(530) 335-6070",
    "type": "fqhc",
    "lat": 40.88895,
    "lng": -121.651535,
    "distance": 57.89024679497671
  },
  {
    "name": "Butte County Phd Oroville Clinic",
    "address": "78 Table Mountain Blvd, Oroville, CA 95965",
    "phone": "(530) 552-3918",
    "type": "public",
    "lat": 39.521809,
    "lng": -121.553383,
    "distance": 58.04656798258176
  },
  {
    "name": "Feather River Tribal Health",
    "address": "2145 5th Ave, Oroville, CA 95965",
    "phone": "(530) 534-5394",
    "type": "public",
    "lat": 39.50362,
    "lng": -121.563423,
    "distance": 58.71197672858803
  },
  {
    "name": "Ampla Health Oroville",
    "address": "2800 Lincoln St, Oroville, CA 95966",
    "phone": "(530) 534-7500",
    "type": "fqhc",
    "lat": 39.501431,
    "lng": -121.551811,
    "distance": 59.208133638403865
  },
  {
    "name": "Round Valley Indian Health Clinic",
    "address": "24065 Biggar Ln, Covelo Ca 95428",
    "phone": "(707) 983-6181",
    "type": "public",
    "lat": 39.809284,
    "lng": -123.246948,
    "distance": 59.29506411786894
  },
  {
    "name": "Oroville Hosp-perinatal Hbv Program",
    "address": "2767 Olive Hwy, Oroville, CA 95966",
    "phone": "(530) 532-8377",
    "type": "private",
    "lat": 39.504593,
    "lng": -121.54213,
    "distance": 59.35222702802467
  },
  {
    "name": "Big Valley Health Center",
    "address": "554-850 Medical Center Drive, Bieber, CA 96009",
    "phone": "(530) 999-9010",
    "type": "fqhc",
    "lat": 39.50563,
    "lng": -121.540169,
    "distance": 59.36043992617173
  },
  {
    "name": "Neal Pediatric Practice Associates",
    "address": "2809 Olive Hwy, Ste 330, Oroville, CA 95966",
    "phone": "(530) 532-8623",
    "type": "private",
    "lat": 39.50412,
    "lng": -121.541374,
    "distance": 56.741892500487
  },
  {
    "name": "Oroville Hospital Ped Practice",
    "address": "2809 Olive Hwy, Ste 270, Oroville, CA 95966",
    "phone": "(530) 532-8629",
    "type": "fqhc",
    "lat": 39.50412,
    "lng": -121.541374,
    "distance": 56.741892500487
  },
  {
    "name": "Ampla Health Gridley Medical",
    "address": "520 Kentucky St, Gridley, CA 95948",
    "phone": "(530) 846-6231",
    "type": "fqhc",
    "lat": 39.36396,
    "lng": -121.696274,
    "distance": 58.882443874827096
  },
  {
    "name": "Chuk Ndulue, M D",
    "address": "135 Spruce St, Gridley, CA 95948",
    "phone": "(530) 846-1400",
    "type": "fqhc",
    "lat": 39.366669,
    "lng": -121.68885,
    "distance": 58.890115782744225
  }
]