[
  {
    "name": "Tulare County Iap",
    "address": "1062 S K St, Tulare, CA 93274",
    "phone": "(559) 685-5725",
    "type": "public",
    "lat": 36.195679,
    "lng": -119.342125,
    "distance": 0.8757374767826887
  },
  {
    "name": "Fhcn-tulare Hillman",
    "address": "1062 S K St, Tulare, CA 93274",
    "phone": "(877) 960-3426",
    "type": "fqhc",
    "lat": 36.195679,
    "lng": -119.342125,
    "distance": 0.8757374767826887
  },
  {
    "name": "Fhcn-tulare West",
    "address": "263 S West St, Tulare, CA 93274",
    "phone": "(559) 684-7505",
    "type": "fqhc",
    "lat": 36.204136,
    "lng": -119.366859,
    "distance": 1.1288735394871918
  },
  {
    "name": "Fhcn--tulare Peds",
    "address": "1008 N Cherry St, Tulare, CA 93274",
    "phone": "(559) 688-5437",
    "type": "fqhc",
    "lat": 36.222191,
    "lng": -119.337219,
    "distance": 1.1427986207175387
  },
  {
    "name": "Tulare Pediatric Group Inc",
    "address": "1062 N Cherry St, Tulare, CA 93274",
    "phone": "(559) 686-3824",
    "type": "private",
    "lat": 36.223,
    "lng": -119.336693,
    "distance": 1.205904008402501
  },
  {
    "name": "Altura Centers For Health-mv2",
    "address": "1101 N Cherry St, Tulare, CA 93274",
    "phone": "(559) 684-4356",
    "type": "fqhc",
    "lat": 36.22337,
    "lng": -119.337517,
    "distance": 1.2073626299215847
  },
  {
    "name": "Altura Centers For Health-mobile 1",
    "address": "1101 N Cherry St, Tulare, CA 93274",
    "phone": "(559) 684-4356",
    "type": "fqhc",
    "lat": 36.22337,
    "lng": -119.337517,
    "distance": 1.2073626299215847
  },
  {
    "name": "Altura Centers For Health-main",
    "address": "1101 N Cherry St, Tulare, CA 93274",
    "phone": "(559) 684-4356",
    "type": "VFA",
    "lat": 36.22337,
    "lng": -119.337517,
    "distance": 1.2073626299215847
  },
  {
    "name": "Altura Centers For Health-west",
    "address": "1500 W Tulare Dr, Tulare, CA 93274",
    "phone": "(559) 684-4356",
    "type": "fqhc",
    "lat": 36.206444,
    "lng": -119.368988,
    "distance": 1.2234281202338442
  },
  {
    "name": "Family Wellness Ctr  Walk-in Cl",
    "address": "1159 N Cherry St, Tulare, CA 93274",
    "phone": "(559) 684-7700",
    "type": "private",
    "lat": 36.224026,
    "lng": -119.337196,
    "distance": 1.2559294561849341
  },
  {
    "name": "Ahmo-tulare",
    "address": "2059 Hillman St, Tulare, CA 93274",
    "phone": "(559) 605-0090",
    "type": "fqhc",
    "lat": 36.230614,
    "lng": -119.33223,
    "distance": 1.7871620097665755
  },
  {
    "name": "Altura Centers For Health-pediatric",
    "address": "1186 Leland Ave, Tulare, CA 93274",
    "phone": "(559) 684-4356",
    "type": "fqhc",
    "lat": 36.230331,
    "lng": -119.328003,
    "distance": 1.8917497009488884
  },
  {
    "name": "Kaweah Health Tulare Cinic",
    "address": "1000 N Mooney Blvd, Tulare, CA 93274",
    "phone": "(559) 685-7100",
    "type": "fqhc",
    "lat": 36.225128,
    "lng": -119.3125,
    "distance": 2.273916227810901
  },
  {
    "name": "Altura Centers For Health- South",
    "address": "3035 E Bardsley Ave, Tulare, CA 93274",
    "phone": "(559) 684-4356",
    "type": "fqhc",
    "lat": 36.196011,
    "lng": -119.30262,
    "distance": 2.6083173042642196
  },
  {
    "name": "United Health Centers Visaliamooney",
    "address": "4038 S Mooney Blvd, Visalia, CA 93277",
    "phone": "(800) 492-4227",
    "type": "fqhc",
    "lat": 36.293964,
    "lng": -119.312225,
    "distance": 6.269444943692095
  },
  {
    "name": "Fhcn-visalia Mooney",
    "address": "2333 S Mooney Blvd, Visalia, CA 93277",
    "phone": "(559) 205-1800",
    "type": "fqhc",
    "lat": 36.308727,
    "lng": -119.315384,
    "distance": 7.200938732661906
  },
  {
    "name": "Bright Pediatrics  Echo",
    "address": "1922 S Court St, Visalia, CA 93277",
    "phone": "(559) 625-0888",
    "type": "private",
    "lat": 36.31345,
    "lng": -119.291092,
    "distance": 7.945493539130546
  },
  {
    "name": "Omni Family Health - Visalia",
    "address": "311 W Noble Ave, Visalia, CA 93277",
    "phone": "(559) 558-9735",
    "type": "fqhc",
    "lat": 36.326225,
    "lng": -119.295563,
    "distance": 8.678526171163943
  },
  {
    "name": "Fhcn--visalia Oak",
    "address": "400 E Oak Ave, Visalia, CA 93291",
    "phone": "(559) 741-4500",
    "type": "fqhc",
    "lat": 36.332218,
    "lng": -119.288612,
    "distance": 9.20019882769929
  },
  {
    "name": "Fhcn--school Ave",
    "address": "401 E School Ave, Visalia, CA 93291",
    "phone": "(559) 741-4599",
    "type": "fqhc",
    "lat": 36.332569,
    "lng": -119.288429,
    "distance": 9.226487107343907
  },
  {
    "name": "Fhcn-bridge",
    "address": "501 N Bridge St, Visalia, CA 93291",
    "phone": "(559) 734-1939",
    "type": "fqhc",
    "lat": 36.334404,
    "lng": -119.289345,
    "distance": 9.327429042610058
  },
  {
    "name": "Tipton Medical Clinic",
    "address": "565 N Thompson Rd, Tipton, CA 93272",
    "phone": "(559) 752-4147",
    "type": "fqhc",
    "lat": 36.063606,
    "lng": -119.312477,
    "distance": 10.142266612837156
  },
  {
    "name": "Farmersville Health Care Center",
    "address": "660 E Visalia Rd, Farmersville, CA 93223",
    "phone": "(559) 713-2890",
    "type": "fqhc",
    "lat": 36.29805,
    "lng": -119.2015,
    "distance": 10.236979564297618
  },
  {
    "name": "Fhcn--farmersville",
    "address": "730 N Farmersville Blvd, Farmersville, CA 93223",
    "phone": "(559) 747-1470",
    "type": "fqhc",
    "lat": 36.303509,
    "lng": -119.206749,
    "distance": 10.24612370329832
  },
  {
    "name": "Visalia Health Center",
    "address": "2611 N Dinuba Blvd, Visalia, CA 93291",
    "phone": "(559) 623-0700",
    "type": "VFA",
    "lat": 36.350414,
    "lng": -119.297005,
    "distance": 10.248416858833194
  },
  {
    "name": "Fhcn Farmersville",
    "address": "682 E Visalia Rd, Farmersville, CA 93223",
    "phone": "(559) 594-4564",
    "type": "fqhc",
    "lat": 36.298176,
    "lng": -119.201042,
    "distance": 10.262497642043128
  },
  {
    "name": "Tulare County Public Health Clinic",
    "address": "2505 N Dinuba Blvd, Visalia, CA 93291",
    "phone": "(559) 685-5724",
    "type": "public",
    "lat": 36.352474,
    "lng": -119.297791,
    "distance": 10.373762971678397
  },
  {
    "name": "Fhcn-goshen",
    "address": "31180 Rd 72, Visalia, CA 93291",
    "phone": "(559) 651-2301",
    "type": "fqhc",
    "lat": 36.355972,
    "lng": -119.411575,
    "distance": 10.856465353213844
  },
  {
    "name": "Fhcn-mobile Unit",
    "address": "31180 Road 72, Visalia, CA 93291",
    "phone": "(559) 651-2301",
    "type": "fqhc",
    "lat": 36.355812,
    "lng": -119.412399,
    "distance": 10.86130317062129
  },
  {
    "name": "Altura Centers For Health-woodville",
    "address": "16686 Road 168, Porterville, CA 93257",
    "phone": "(559) 684-4356",
    "type": "fqhc",
    "lat": 36.09267,
    "lng": -119.196312,
    "distance": 11.57392527809365
  },
  {
    "name": "Omni Family Health Exeter",
    "address": "1110 W Visalia Rd Ste 102, Exeter, CA 93221",
    "phone": "(559) 558-9890",
    "type": "fqhc",
    "lat": 36.296555,
    "lng": -119.154709,
    "distance": 12.354020670760603
  },
  {
    "name": "Family Healthcare Network Ivanhoe",
    "address": "33025 Road 159, Ivanhoe, CA 93235",
    "phone": "(559) 798-1877",
    "type": "fqhc",
    "lat": 36.389095,
    "lng": -119.21804,
    "distance": 11.578097562315437
  },
  {
    "name": "United Health Centers Of San Joaqui",
    "address": "1000 Chittenden Ave, Corcoran, CA 93212",
    "phone": "(559) 992-5020",
    "type": "VFA",
    "lat": 36.099262,
    "lng": -119.560066,
    "distance": 12.552796124301315
  },
  {
    "name": "Ahmo-corcoran",
    "address": "1212 Hanna Ave, Corcoran, CA 93212",
    "phone": "(559) 992-2800",
    "type": "fqhc",
    "lat": 36.10006,
    "lng": -119.562866,
    "distance": 12.683392247166234
  },
  {
    "name": "Shyam Bhaskar Md",
    "address": "1001 Van Dorsten Ave, Corcoran, CA 93212",
    "phone": "(559) 992-2337",
    "type": "private",
    "lat": 36.099541,
    "lng": -119.563118,
    "distance": 12.708061826915534
  },
  {
    "name": "Pixley Medical Group",
    "address": "205 E Davis Ave, Pixley, CA 93256",
    "phone": "(559) 757-2000",
    "type": "private",
    "lat": 35.968151,
    "lng": -119.292122,
    "distance": 13.452563055627687
  },
  {
    "name": "Fhcn-pixley",
    "address": "927 S Center St, Pixley, CA 93256",
    "phone": "(877) 960-3426",
    "type": "fqhc",
    "lat": 35.965759,
    "lng": -119.291519,
    "distance": 13.621164787891699
  },
  {
    "name": "Sequoia Family Medical Center",
    "address": "252 N Highway 65, Lindsay, CA 93247",
    "phone": "(559) 525-9097",
    "type": "fqhc",
    "lat": 36.201729,
    "lng": -119.101837,
    "distance": 14.013375011637676
  },
  {
    "name": "Aurora Grace Hwang Md",
    "address": "835 Sequoia Ave, Lindsay, CA 93247",
    "phone": "(559) 562-5177",
    "type": "private",
    "lat": 36.213539,
    "lng": -119.097282,
    "distance": 14.456528612713543
  },
  {
    "name": "Vida Sana Pediatrics",
    "address": "781 Sequoia Ave Ste 1, Lindsay, CA 93247",
    "phone": "(559) 562-9399",
    "type": "VFA",
    "lat": 36.212429,
    "lng": -119.096764,
    "distance": 14.464266385505242
  },
  {
    "name": "Clinica Agua Viva",
    "address": "833 Sequoia Ave, Lindsay, CA 93247",
    "phone": "(559) 562-1361",
    "type": "fqhc",
    "lat": 36.212963,
    "lng": -119.09687,
    "distance": 14.468166545822907
  },
  {
    "name": "Kaweah Delta Lindsay Clinic",
    "address": "839 Sequoia Ave, Lindsay, CA 93247",
    "phone": "(559) 562-1546",
    "type": "fqhc",
    "lat": 36.213741,
    "lng": -119.096161,
    "distance": 14.520517600394996
  },
  {
    "name": "Omni Family Health- Lindsay",
    "address": "860 Sequoia Ave, Lindsay, CA 93247",
    "phone": "(559) 558-9822",
    "type": "fqhc",
    "lat": 36.214237,
    "lng": -119.096046,
    "distance": 14.535797857861343
  },
  {
    "name": "Ahmo- Home Garden",
    "address": "11899 Shaw Pl, Hanford, CA 93230",
    "phone": "(559) 537-0192",
    "type": "fqhc",
    "lat": 36.300152,
    "lng": -119.630127,
    "distance": 14.470778456788755
  }
]